{
"type": "FeatureCollection",
"name": "biodigestor",
"crs": { "type": "name", "properties": { "name": "urn:ogc:def:crs:OGC:1.3:CRS84" } },
"features": [
{ "type": "Feature", "properties": { "id": 91, "Tecnologia": "Biodigestor", "Projeto": "PPF - Projeto Paulo Freire", "Tipo": "Sertanejo", "municipio": "Graça", "Estado": "Ceará", "QtInstal": 28, "NumBenef": 28 }, "geometry": { "type": "Point", "coordinates": [ -40.776705157742427, -4.048360786000027 ] } },
{ "type": "Feature", "properties": { "id": 92, "Tecnologia": "Biodigestor", "Projeto": "PPF - Projeto Paulo Freire", "Tipo": "Sertanejo", "municipio": "Irauçuba", "Estado": "Ceará", "QtInstal": 42, "NumBenef": 42 }, "geometry": { "type": "Point", "coordinates": [ -39.818114947029557, -3.865666249965802 ] } },
{ "type": "Feature", "properties": { "id": 93, "Tecnologia": "Biodigestor", "Projeto": "PPF - Projeto Paulo Freire", "Tipo": "Sertanejo", "municipio": "Massapê", "Estado": "Ceará", "QtInstal": 65, "NumBenef": 65 }, "geometry": { "type": "Point", "coordinates": [ -40.388028063781185, -3.484336359109188 ] } },
{ "type": "Feature", "properties": { "id": 94, "Tecnologia": "Biodigestor", "Projeto": "PPF - Projeto Paulo Freire", "Tipo": "Sertanejo", "municipio": "Mucambo", "Estado": "Ceará", "QtInstal": 7, "NumBenef": 7 }, "geometry": { "type": "Point", "coordinates": [ -40.755135844175797, -3.898139715275013 ] } },
{ "type": "Feature", "properties": { "id": 95, "Tecnologia": "Biodigestor", "Projeto": "PPF - Projeto Paulo Freire", "Tipo": "Sertanejo", "municipio": "Senador Sá", "Estado": "Ceará", "QtInstal": 6, "NumBenef": 6 }, "geometry": { "type": "Point", "coordinates": [ -40.461189529481345, -3.271029647474468 ] } },
{ "type": "Feature", "properties": { "id": 96, "Tecnologia": "Biodigestor", "Projeto": "PPF - Projeto Paulo Freire", "Tipo": "Sertanejo", "municipio": "Sobral", "Estado": "Ceará", "QtInstal": 72, "NumBenef": 72 }, "geometry": { "type": "Point", "coordinates": [ -40.226711463090439, -3.809739292897716 ] } },
{ "type": "Feature", "properties": { "id": 99, "Tecnologia": "Biodigestor", "Projeto": "PDT - Projeto Dom Távora", "Tipo": "Sertanejo", "municipio": "Poço Verde", "Estado": "Sergipe", "QtInstal": 5, "NumBenef": 20 }, "geometry": { "type": "Point", "coordinates": [ -38.127623730000472, -10.800890545061998 ] } },
{ "type": "Feature", "properties": { "id": 74, "Tecnologia": "Biodigestor", "Projeto": "Gente de Valor", "Tipo": "Sertanejo", "municipio": "Antas", "Estado": "Bahia", "QtInstal": 3, "NumBenef": 3 }, "geometry": { "type": "Point", "coordinates": [ -38.294029111380404, -10.406570892704082 ] } },
{ "type": "Feature", "properties": { "id": 75, "Tecnologia": "Biodigestor", "Projeto": "Gente de Valor", "Tipo": "Sertanejo", "municipio": "Banzaê", "Estado": "Bahia", "QtInstal": 1, "NumBenef": 1 }, "geometry": { "type": "Point", "coordinates": [ -38.654343736526329, -10.616471821695971 ] } },
{ "type": "Feature", "properties": { "id": 76, "Tecnologia": "Biodigestor", "Projeto": "Gente de Valor", "Tipo": "Sertanejo", "municipio": "Bom Jesus da Serra", "Estado": "Bahia", "QtInstal": 1, "NumBenef": 1 }, "geometry": { "type": "Point", "coordinates": [ -40.577361158995309, -14.389879260371822 ] } },
{ "type": "Feature", "properties": { "id": 77, "Tecnologia": "Biodigestor", "Projeto": "Gente de Valor", "Tipo": "Sertanejo", "municipio": "Cansanção", "Estado": "Bahia", "QtInstal": 1, "NumBenef": 1 }, "geometry": { "type": "Point", "coordinates": [ -39.472719616424889, -10.72692900318892 ] } },
{ "type": "Feature", "properties": { "id": 78, "Tecnologia": "Biodigestor", "Projeto": "Gente de Valor", "Tipo": "Sertanejo", "municipio": "Canudos", "Estado": "Bahia", "QtInstal": 1, "NumBenef": 1 }, "geometry": { "type": "Point", "coordinates": [ -38.991703295547424, -10.064129180758528 ] } },
{ "type": "Feature", "properties": { "id": 79, "Tecnologia": "Biodigestor", "Projeto": "Gente de Valor", "Tipo": "Sertanejo", "municipio": "Chorrochó", "Estado": "Bahia", "QtInstal": 1, "NumBenef": 1 }, "geometry": { "type": "Point", "coordinates": [ -39.189110240399927, -9.271707121311625 ] } },
{ "type": "Feature", "properties": { "id": 80, "Tecnologia": "Biodigestor", "Projeto": "Gente de Valor", "Tipo": "Sertanejo", "municipio": "Fátima", "Estado": "Bahia", "QtInstal": 1, "NumBenef": 1 }, "geometry": { "type": "Point", "coordinates": [ -38.201348289768269, -10.593622816658611 ] } },
{ "type": "Feature", "properties": { "id": 81, "Tecnologia": "Biodigestor", "Projeto": "Gente de Valor", "Tipo": "Sertanejo", "municipio": "Heliópolis", "Estado": "Bahia", "QtInstal": 1, "NumBenef": 1 }, "geometry": { "type": "Point", "coordinates": [ -38.314226475604571, -10.746773943733626 ] } },
{ "type": "Feature", "properties": { "id": 82, "Tecnologia": "Biodigestor", "Projeto": "Gente de Valor", "Tipo": "Sertanejo", "municipio": "Itapicuru", "Estado": "Bahia", "QtInstal": 5, "NumBenef": 5 }, "geometry": { "type": "Point", "coordinates": [ -38.194781623908938, -11.188421524297823 ] } },
{ "type": "Feature", "properties": { "id": 83, "Tecnologia": "Biodigestor", "Projeto": "Gente de Valor", "Tipo": "Sertanejo", "municipio": "Jeremoabo", "Estado": "Bahia", "QtInstal": 2, "NumBenef": 2 }, "geometry": { "type": "Point", "coordinates": [ -38.552525856182704, -9.940661018235827 ] } },
{ "type": "Feature", "properties": { "id": 84, "Tecnologia": "Biodigestor", "Projeto": "Gente de Valor", "Tipo": "Sertanejo", "municipio": "Manoel Vitorino", "Estado": "Bahia", "QtInstal": 2, "NumBenef": 2 }, "geometry": { "type": "Point", "coordinates": [ -40.547598196014093, -14.050874762422639 ] } },
{ "type": "Feature", "properties": { "id": 85, "Tecnologia": "Biodigestor", "Projeto": "Gente de Valor", "Tipo": "Sertanejo", "municipio": "Mirante", "Estado": "Bahia", "QtInstal": 4, "NumBenef": 4 }, "geometry": { "type": "Point", "coordinates": [ -40.764087451858629, -14.167820719980497 ] } },
{ "type": "Feature", "properties": { "id": 86, "Tecnologia": "Biodigestor", "Projeto": "Gente de Valor", "Tipo": "Sertanejo", "municipio": "Monte Santo", "Estado": "Bahia", "QtInstal": 2, "NumBenef": 2 }, "geometry": { "type": "Point", "coordinates": [ -39.454202038155273, -10.382987629609614 ] } },
{ "type": "Feature", "properties": { "id": 87, "Tecnologia": "Biodigestor", "Projeto": "Gente de Valor", "Tipo": "Sertanejo", "municipio": "Nordestina", "Estado": "Bahia", "QtInstal": 3, "NumBenef": 3 }, "geometry": { "type": "Point", "coordinates": [ -39.451410822341103, -10.873093591011921 ] } },
{ "type": "Feature", "properties": { "id": 88, "Tecnologia": "Biodigestor", "Projeto": "Gente de Valor", "Tipo": "Sertanejo", "municipio": "Novo Triunfo", "Estado": "Bahia", "QtInstal": 1, "NumBenef": 1 }, "geometry": { "type": "Point", "coordinates": [ -38.449428944471649, -10.368159700083728 ] } },
{ "type": "Feature", "properties": { "id": 89, "Tecnologia": "Biodigestor", "Projeto": "Gente de Valor", "Tipo": "Sertanejo", "municipio": "Quijingue", "Estado": "Bahia", "QtInstal": 2, "NumBenef": 2 }, "geometry": { "type": "Point", "coordinates": [ -39.04978296981578, -10.778078795753052 ] } },
{ "type": "Feature", "properties": { "id": 90, "Tecnologia": "Biodigestor", "Projeto": "Gente de Valor", "Tipo": "Sertanejo", "municipio": "Ribeira do Amparo", "Estado": "Bahia", "QtInstal": 1, "NumBenef": 1 }, "geometry": { "type": "Point", "coordinates": [ -38.388804696473109, -10.974235430864189 ] } },
{ "type": "Feature", "properties": { "id": 97, "Tecnologia": "Biodigestor", "Projeto": "PPF - Projeto Paulo Freire", "Tipo": "Sertanejo", "municipio": "Varjota", "Estado": "Ceará", "QtInstal": 1, "NumBenef": 1 }, "geometry": { "type": "Point", "coordinates": [ -40.475912, -4.195471 ] } },
{ "type": "Feature", "properties": { "id": 98, "Tecnologia": "Biodigestor", "Projeto": "PPF - Projeto Paulo Freire", "Tipo": "Sertanejo", "municipio": "Varjota", "Estado": "Ceará", "QtInstal": 1, "NumBenef": 1 }, "geometry": { "type": "Point", "coordinates": [ -40.467681, -4.127872 ] } }
]
}
